City_ID,City,Lat,Lng,Max Temp,Humidity,Cloudiness,Wind Speed,Country,Date
0,fortuna,40.5982,-124.1573,17.97,68,0,5.66,US,1715194835
1,berezovyy,51.6667,135.7,10.73,55,100,2.29,RU,1715194836
2,tiksi,71.6872,128.8694,-9.37,95,63,3.24,RU,1715194836
3,edinburgh of the seven seas,-37.0676,-12.3116,14.32,67,35,10.7,SH,1715194836
4,hamilton,39.1834,-84.5333,29.79,51,0,2.06,US,1715194369
5,richards bay,-28.783,32.0377,21.71,83,28,3.59,ZA,1715194836
6,arauca,7.0847,-70.7591,32.98,66,40,1.03,CO,1715194836
7,port-aux-francais,-49.35,70.2167,4.89,74,81,7.52,TF,1715194836
8,naze,28.3667,129.4833,17.51,65,98,7.89,JP,1715194582
9,wuhai,39.6647,106.8122,20.67,40,16,11.0,CN,1715194837
10,ushuaia,-54.8,-68.3,3.79,81,20,0.51,AR,1715194576
11,ribeira grande,38.5167,-28.7,19.32,72,40,7.72,PT,1715194837
12,waitangi,-43.9535,-176.5597,9.34,84,100,0.45,NZ,1715194837
13,cole harbour,44.6724,-63.4751,16.66,51,75,7.72,CA,1715194837
14,stanley,54.868,-1.6985,14.87,75,89,3.49,GB,1715194837
15,grytviken,-54.2811,-36.5092,-3.45,69,6,3.06,GS,1715194837
16,borazjan,29.2666,51.2159,28.31,30,0,3.01,IR,1715194837
17,aasiaat,68.7098,-52.8699,-3.84,71,86,4.58,GL,1715194837
18,puerto natales,-51.7236,-72.4875,0.25,100,100,2.06,CL,1715194838
19,invercargill,-46.4,168.35,0.01,95,9,1.34,NZ,1715194838
20,bilibino,68.0546,166.4372,-4.55,91,100,1.14,RU,1715194838
21,paita,-5.0892,-81.1144,22.88,71,11,7.17,PE,1715194838
22,margaret river,-33.95,115.0667,17.45,48,100,4.94,AU,1715194838
23,sinabang,2.4803,96.3801,26.96,85,43,1.68,ID,1715194838
24,bondo,3.8146,23.6866,27.71,46,48,0.72,CD,1715194838
25,bethel,41.3712,-73.414,29.24,65,11,2.24,US,1715194838
26,lihue,21.9789,-159.3672,26.58,79,13,3.61,US,1715194838
27,west island,-12.1568,96.8225,26.99,83,100,5.14,CC,1715194838
28,nyurba,63.2842,118.3319,-3.55,95,98,2.58,RU,1715194839
29,port elizabeth,-33.918,25.5701,17.83,87,75,4.12,ZA,1715194572
30,yuzhno-kurilsk,44.0306,145.8556,2.99,95,69,5.23,RU,1715194839
31,puerto ayora,-0.7393,-90.3518,26.98,94,100,2.24,EC,1715194570
32,polyarnyy,69.1989,33.4478,-3.77,78,88,1.74,RU,1715194839
33,blackmans bay,-43.0167,147.3167,10.41,96,79,0.45,AU,1715194839
34,yellowknife,62.456,-114.3525,14.12,60,20,4.12,CA,1715194736
35,new plymouth,-39.0667,174.0833,9.34,71,33,8.27,NZ,1715194839
36,olonkinbyen,70.9221,-8.7187,-1.6,99,100,9.38,SJ,1715194840
37,qaqortoq,60.7167,-46.0333,2.52,61,100,1.43,GL,1715194840
38,saguenay,48.4168,-71.0657,14.06,45,75,9.26,CA,1715194840
39,rongelap,11.1635,166.8941,26.93,78,100,9.18,MH,1715194840
40,mstera,56.3789,41.92,-0.24,91,97,1.8,RU,1715194840
41,pahrump,36.2083,-115.9839,19.58,14,0,6.71,US,1715194755
42,san luis de la paz,21.3,-100.5167,33.16,13,87,2.37,MX,1715194840
43,n'dalatando,-9.2978,14.9116,23.99,65,78,0.63,AO,1715194840
44,hluti,-27.2167,31.6167,17.1,92,28,0.23,SZ,1715194840
45,ust-nera,64.5667,143.2,1.26,82,100,0.19,RU,1715194841
46,tolanaro,-25.0319,46.9987,24.04,78,40,5.14,MG,1715194841
47,laayoune,27.1622,-13.2032,26.19,50,100,8.75,EH,1715194841
48,anadyr,64.75,177.4833,-7.72,73,0,4.0,RU,1715194841
49,adamstown,-25.066,-130.1015,22.0,79,100,3.71,PN,1715194841
50,mombetsu,44.3525,143.3525,0.25,94,91,1.9,JP,1715194841
51,zaozersk,69.4005,32.4476,-6.49,86,100,2.46,RU,1715194841
52,hobyo,5.3505,48.5268,29.42,78,80,4.24,SO,1715194841
53,petropavlovsk-kamchatsky,53.0452,158.6483,1.33,78,75,3.58,RU,1715194841
54,imbituba,-28.24,-48.6703,27.14,54,72,3.95,BR,1715194602
55,hammerfest,70.6634,23.6821,3.25,48,0,5.14,NO,1715194842
56,port mathurin,-19.6833,63.4167,25.57,67,90,12.05,MU,1715194842
57,atafu village,-8.5421,-172.5159,29.58,75,31,5.31,TK,1715194842
58,georgetown,5.4112,100.3354,28.96,80,20,1.54,MY,1715194834
59,kodiak,57.79,-152.4072,3.04,86,100,1.57,US,1715194842
60,kailua-kona,19.6406,-155.9956,26.82,77,15,2.08,US,1715194805
61,qusmuryn,52.4503,64.6311,18.55,52,100,7.51,KZ,1715194842
62,bulungu,-4.55,18.6,28.07,47,57,1.03,CD,1715194842
63,college,64.8569,-147.8028,10.61,81,75,0.45,US,1715194843
64,flying fish cove,-10.4217,105.6791,25.82,94,100,4.12,CX,1715194843
65,udachny,66.4167,112.4,-6.97,89,40,2.93,RU,1715194843
66,upington,-28.4478,21.2561,23.21,33,0,0.51,ZA,1715194843
67,bardai,11.65,7.2333,33.52,15,73,3.01,NG,1715194843
68,iqaluit,63.7506,-68.5145,-1.15,74,75,7.72,CA,1715194843
69,kourou,5.1552,-52.6478,29.03,73,99,4.01,GF,1715194807
70,kirensk,57.7853,108.1119,6.65,58,100,1.79,RU,1715194843
71,adigrat,14.277,39.462,19.43,58,99,1.69,ET,1715194843
72,dwarka,22.2394,68.9678,27.31,87,0,5.91,IN,1715194844
73,constantia,44.1833,28.65,11.5,86,31,7.14,RO,1715194600
74,bryne,58.7354,5.6477,10.52,82,75,2.57,NO,1715194844
75,chonchi,-42.6128,-73.8092,9.56,90,100,3.25,CL,1715194844
76,ta`u,-14.2336,-169.5144,28.89,79,97,5.5,AS,1715194844
77,estes park,40.3772,-105.5217,10.79,38,81,7.15,US,1715194694
78,namibe,-15.1961,12.1522,23.36,68,0,4.07,AO,1715194844
79,macomer,40.262,8.7699,10.92,86,100,2.55,IT,1715194844
80,tinghir,31.5157,-5.5343,27.49,10,100,3.53,MA,1715194844
81,broome,42.2506,-75.833,27.32,44,5,4.92,US,1715194845
82,tymovskoye,50.8456,142.655,-0.82,92,23,3.92,RU,1715194845
83,fort mcmurray,56.7268,-111.381,13.77,62,0,2.06,CA,1715194807
84,alofi,-19.0595,-169.9187,25.94,94,75,5.66,NU,1715194845
85,bredasdorp,-34.5322,20.0403,13.21,81,0,0.24,ZA,1715194845
86,utrik,11.2278,169.8474,26.85,78,100,9.41,MH,1715194845
87,glace bay,46.1969,-59.957,13.92,77,20,7.2,CA,1715194845
88,mbabane,-26.3167,31.1333,13.33,70,0,1.02,SZ,1715194845
89,abu zabad,12.35,29.25,31.89,12,4,6.83,SD,1715194845
90,pong,19.1493,100.2752,23.42,82,0,0.95,TH,1715194846
91,badger,64.8,-147.5333,10.56,72,75,0.45,US,1715194846
92,belle fourche,44.6714,-103.8522,9.72,88,100,2.89,US,1715194846
93,howard springs,-12.497,131.047,23.95,98,33,0.75,AU,1715194846
94,vorgashor,67.5833,63.95,-9.55,93,100,3.45,RU,1715194846
95,jamestown,42.097,-79.2353,25.29,43,40,12.35,US,1715194797
96,los frentones,-26.4077,-61.4137,22.75,58,53,5.99,AR,1715194846
97,lorengau,-2.0226,147.2712,27.56,83,99,6.78,PG,1715194846
98,walvis bay,-22.9575,14.5053,17.53,77,0,2.06,NA,1715194847
99,callao,-12.0667,-77.15,20.16,83,40,4.12,PE,1715194801
100,itaituba,-4.2761,-55.9836,31.09,70,20,1.03,BR,1715194847
101,shimoda,34.6667,138.95,11.17,85,100,6.31,JP,1715194847
102,hawaiian paradise park,19.5933,-154.9731,25.57,81,12,1.76,US,1715194847
103,albany,42.6001,-73.9662,26.64,68,7,1.34,US,1715194786
104,fale old settlement,-9.3852,-171.2468,29.53,76,69,5.03,TK,1715194847
105,bodo,67.28,14.405,4.97,84,75,7.72,NO,1715194841
106,porlamar,10.958,-63.8491,29.62,73,100,5.81,VE,1715194847
107,esquel,-42.9,-71.3167,3.33,99,94,1.37,AR,1715194635
108,loango,-4.6719,11.8312,26.17,89,98,4.15,CG,1715194848
109,niederstetten,49.4,9.9194,13.05,82,75,2.06,DE,1715194848
110,margate,51.3813,1.3862,13.82,70,100,0.45,GB,1715194758
111,aykhal,66.0,111.5,-8.57,97,99,3.33,RU,1715194848
112,magistral'nyy,56.1725,107.4458,6.32,67,100,1.89,RU,1715194848
113,miyaly,48.8844,53.7836,12.36,89,99,7.74,KZ,1715194848
114,gebeit,21.0667,36.3167,23.93,38,0,3.05,SD,1715194848
115,cardigan,52.0847,-4.6591,13.83,88,99,1.41,GB,1715194849
116,hancheng,32.5186,112.3522,19.97,66,100,2.48,CN,1715194849
117,freetown,8.484,-13.2299,29.84,74,75,6.17,SL,1715194849
118,remire-montjoly,4.9167,-52.2667,29.02,79,75,3.09,GF,1715194849
119,ceerigaabo,10.6162,47.368,21.61,63,14,2.97,SO,1715194849
120,calabozo,8.9242,-67.4293,34.05,45,100,1.78,VE,1715194849
121,sorong,-0.8833,131.25,25.09,94,100,2.34,ID,1715194850
122,punta arenas,-53.15,-70.9167,3.06,93,75,1.54,CL,1715194402
123,kapuskasing,49.4169,-82.4331,8.05,61,75,6.69,CA,1715194850
124,tocopilla,-22.092,-70.1979,21.15,68,54,3.06,CL,1715194850
125,lerwick,60.1545,-1.1494,9.0,98,100,6.57,GB,1715194850
126,cabedelo,-6.9811,-34.8339,30.37,78,100,4.43,BR,1715194828
127,thompson,55.7435,-97.8558,10.09,53,40,3.09,CA,1715194850
128,iskateley,67.6803,53.1512,-4.99,88,100,7.15,RU,1715194850
129,happy valley-goose bay,53.3168,-60.3315,4.17,56,75,6.17,CA,1715194813
130,san patricio,28.017,-97.5169,32.4,53,100,4.58,US,1715194851
131,papatowai,-46.5619,169.4708,3.14,84,11,2.67,NZ,1715194851
132,youhao,47.8667,128.8333,5.42,86,1,2.1,CN,1715194851
133,minas de marcona,-15.2119,-75.1103,18.38,68,73,8.51,PE,1715194851
134,avarua,-21.2078,-159.775,28.03,89,75,4.12,CK,1715194851
135,perry,37.2506,-83.1999,20.1,91,100,3.32,US,1715194851
136,dobrinka,52.1653,40.4731,4.34,73,20,3.4,RU,1715194851
137,kuanda,56.3161,116.0806,2.0,74,80,0.74,RU,1715194851
138,serdar,38.9764,56.2757,21.23,47,0,6.17,TM,1715194852
139,hithadhoo,-0.6,73.0833,27.97,80,100,6.5,MV,1715194852
140,hermanus,-34.4187,19.2345,10.45,78,0,2.41,ZA,1715194852
141,wynyard,-41.0,145.7167,11.75,82,53,3.34,AU,1715194852
142,sawakin,19.1059,37.3321,26.86,59,0,3.12,SD,1715194852
143,praia da vitoria,38.7333,-27.0667,20.14,68,20,5.23,PT,1715194852
144,smithers,54.7804,-127.1743,10.18,53,75,4.12,CA,1715194852
145,brak,27.5496,14.2714,31.43,13,0,2.26,LY,1715194850
146,charters towers,-20.1,146.2667,17.18,90,86,3.64,AU,1715194852
147,acarau,-2.8856,-40.12,28.46,81,88,4.29,BR,1715194853
148,greymouth,-42.4667,171.2,4.55,71,1,5.07,NZ,1715194853
149,cox's bazar,21.4532,91.9798,25.16,79,93,1.94,BD,1715194853
150,shihezi,44.3,86.0333,20.58,56,86,3.23,CN,1715194853
151,tura,25.5198,90.2201,20.87,64,0,1.69,IN,1715194853
152,ilulissat,69.2167,-51.1,-1.99,74,75,3.6,GL,1715194853
153,fisterra,42.9049,-9.2629,15.66,82,13,4.98,ES,1715194853
154,vila franca do campo,37.7167,-25.4333,18.27,99,49,4.58,PT,1715194853
155,puerto baquerizo moreno,-0.9,-89.6,28.55,65,40,8.75,EC,1715194854
156,boyolangu,-8.1181,111.8935,23.93,96,72,1.4,ID,1715194854
157,enewetak,11.3474,162.3373,27.55,71,99,9.13,MH,1715194854
158,sao raimundo das mangabeiras,-7.0219,-45.4811,32.47,46,100,4.1,BR,1715194854
159,talnakh,69.4865,88.3972,-11.0,79,98,1.88,RU,1715194854
160,mount pearl,47.5166,-52.7813,6.09,91,100,8.23,CA,1715194792
161,acapulco de juarez,16.8634,-99.8901,27.08,62,99,4.48,MX,1715194801
162,igrim,63.1906,64.4162,1.09,93,100,6.51,RU,1715194854
163,colonia,50.9333,6.95,16.65,70,0,5.14,DE,1715194692
164,isafjordur,66.0755,-23.124,2.05,74,4,4.64,IS,1715194855
165,thames,-37.1333,175.5333,4.83,84,0,2.51,NZ,1715194855
166,kerikeri,-35.2268,173.9474,10.51,83,5,3.58,NZ,1715194855
167,san luis de la loma,17.2706,-100.8939,30.41,50,13,4.09,MX,1715194855
168,alaghsas,17.0187,8.0168,40.94,6,84,4.63,NE,1715194855
169,klaksvik,62.2266,-6.589,10.51,99,100,4.27,FO,1715194855
170,tannum sands,-23.9504,151.3693,19.94,77,40,4.12,AU,1715194855
171,bandarbeyla,9.4942,50.8122,28.96,80,0,5.38,SO,1715194855
172,kristiansund,63.1115,7.732,10.03,66,75,1.03,NO,1715194855
173,lyskovo,56.0328,45.0422,-1.39,94,94,1.73,RU,1715194856
174,weno,7.4515,151.8468,28.55,80,100,7.67,FM,1715194856
175,nagqu,31.5,92.0,1.68,57,86,5.68,CN,1715194856
176,meadow lakes,61.6247,-149.6011,10.14,51,0,2.06,US,1715194856
177,neiafu,-18.65,-173.9833,23.38,94,100,0.0,TO,1715194856
178,eaglehawk,-36.7333,144.25,12.05,67,14,2.41,AU,1715194856
179,kingston,17.997,-76.7936,30.53,74,40,8.23,JM,1715194272
180,qamdo,31.1667,97.2333,5.93,55,100,1.67,CN,1715194856
181,sol'-iletsk,51.1631,54.9918,9.06,89,100,9.23,RU,1715194857
182,behompy,-23.2496,43.8557,21.03,75,0,1.8,MG,1715194857
183,mogadishu,2.0371,45.3438,27.91,83,88,6.64,SO,1715194857
184,longyearbyen,78.2186,15.6401,0.91,60,20,3.6,SJ,1715194824
185,nikolayevsk-on-amure,53.1406,140.73,1.79,72,100,1.79,RU,1715194857
186,bikenibeu village,1.3673,173.1241,27.98,83,40,3.6,KI,1715194857
187,brisas de zicatela,15.8369,-97.0419,29.97,61,100,5.44,MX,1715194857
188,vilyuchinsk,52.9306,158.4028,2.15,82,100,3.16,RU,1715194857
189,beira,-19.8436,34.8389,24.05,83,20,2.68,MZ,1715194857
190,gadzhiyevo,69.2551,33.3362,-2.73,78,97,1.94,RU,1715194857
191,karmaskaly,54.3709,56.1837,4.95,90,100,6.65,RU,1715194858
192,howrah,22.5892,88.3103,27.0,83,40,2.06,IN,1715194847
193,saipan,15.1355,145.701,27.76,78,89,6.16,MP,1715194858
194,pisco,-13.7,-76.2167,21.12,83,75,5.14,PE,1715194858
195,ancud,-41.8697,-73.8203,10.09,82,100,7.23,CL,1715194858
196,luderitz,-26.6481,15.1594,17.1,70,0,6.66,NA,1715194858
197,nguigmi,14.2495,13.1092,32.52,21,14,1.38,NE,1715194858
198,queenstown,-31.8976,26.8753,13.59,81,4,2.17,ZA,1715194858
199,afaahiti,-17.75,-149.2833,27.93,85,100,6.75,PF,1715194859
200,saldanha,-33.0117,17.9442,13.03,78,0,5.03,ZA,1715194859
201,tual,-5.6667,132.75,27.97,77,87,6.22,ID,1715194859
202,vilyuysk,63.7553,121.6247,-3.89,95,100,4.02,RU,1715194859
203,mana,5.6592,-53.7767,29.16,68,100,5.04,GF,1715194859
204,lice,38.4592,40.6475,11.13,68,0,1.47,TR,1715194859
205,sao vicente,-23.9631,-46.3919,34.59,32,0,3.09,BR,1715194859
206,port saint john's,-31.6229,29.5448,21.94,76,69,1.8,ZA,1715194859
207,nova vicosa,-17.8919,-39.3719,28.0,69,2,3.43,BR,1715194833
208,uturoa,-16.7333,-151.4333,27.51,78,74,6.93,PF,1715194860
209,waingapu,-9.6567,120.2641,24.45,85,2,3.89,ID,1715194860
210,webster,42.0501,-71.8801,21.97,90,100,3.09,US,1715194596
211,sodankyla,67.4167,26.6,-5.71,94,69,0.19,FI,1715194860
212,manggar,-2.8833,108.2667,26.96,84,100,1.52,ID,1715194860
213,tsiombe,-25.3,45.4833,21.36,83,0,3.06,MG,1715194860
214,whitehorse,60.7161,-135.0538,8.78,55,75,8.23,CA,1715194663
215,las vegas,36.175,-115.1372,20.13,15,0,8.75,US,1715194417
216,kargasok,59.0556,80.8572,4.42,81,100,2.24,RU,1715194861
217,geraldton,-28.7667,114.6,23.23,28,100,8.23,AU,1715194861
218,port said,31.2565,32.2841,21.99,68,0,5.66,EG,1715194861
219,baihe,22.15,107.2333,22.8,98,100,1.32,CN,1715194861
220,dakhla,23.6848,-15.958,20.01,83,92,8.75,EH,1715194861
221,ishinomaki,38.4167,141.3,8.26,84,100,2.05,JP,1715194861
222,praia,14.9215,-23.5087,26.78,58,2,6.56,CV,1715194861
223,la'ie,21.6477,-157.9253,25.98,70,1,2.68,US,1715194861
224,tazovsky,67.4667,78.7,-14.27,98,69,3.13,RU,1715194862
225,rio gallegos,-51.6226,-69.2181,2.03,100,20,0.0,AR,1715194616
226,plastun,44.7561,136.2939,0.45,91,8,1.37,RU,1715194862
227,portland,45.5234,-122.6762,16.79,62,20,2.06,US,1715194566
228,palopo,-2.9996,120.1921,24.51,95,100,1.53,ID,1715194862
229,camocim,-2.9022,-40.8411,30.12,68,56,3.0,BR,1715194862
230,bathsheba,13.2167,-59.5167,31.34,70,40,7.72,BB,1715194862
231,pullman,46.7313,-117.1796,12.13,60,100,1.79,US,1715194862
232,valparaiso,-33.0393,-71.6273,20.08,43,0,6.69,CL,1715194744
233,east london,-33.0153,27.9116,19.52,94,100,1.03,ZA,1715194786
234,teguise,29.0605,-13.564,22.12,64,0,8.23,ES,1715194863
235,yung shue wan,22.2333,114.1167,25.93,70,100,9.52,HK,1715194863
236,darwin,-12.4611,130.8418,23.99,88,7,1.03,AU,1715194863
237,lubango,-14.9172,13.4925,19.92,64,20,1.03,AO,1715194863
238,chittaranjan,23.8667,86.8667,28.24,48,99,0.93,IN,1715194863
239,dryden,49.7833,-92.7503,15.16,44,0,4.63,CA,1715194834
240,hilo,19.7297,-155.09,29.6,82,2,0.89,US,1715194863
241,mar del plata,-38.0023,-57.5575,15.53,75,75,10.29,AR,1715194348
242,oulad teima,30.3947,-9.209,19.6,50,87,5.15,MA,1715194863
243,malax,62.9423,21.5731,3.45,38,0,1.54,FI,1715194864
244,dudinka,69.4058,86.1778,-10.74,94,100,3.13,RU,1715194864
245,cabo san lucas,22.8909,-109.9124,32.01,48,100,6.45,MX,1715194802
246,ust'-uda,54.1742,103.0304,10.96,62,100,4.45,RU,1715194864
247,genhe,50.7833,121.5167,0.81,42,0,1.21,CN,1715194864
248,kamyshevatskaya,46.4132,37.9563,13.11,53,98,2.69,RU,1715194864
249,muroto-misakicho,33.2833,134.15,14.2,68,93,3.97,JP,1715194864
250,mount gambier,-37.8333,140.7667,8.03,92,33,1.24,AU,1715194864
251,prado,-17.3411,-39.2208,27.39,71,0,3.3,BR,1715194865
252,sisimiut,66.9395,-53.6735,-1.19,73,71,2.23,GL,1715194865
253,hadibu,12.65,54.0333,29.62,72,2,1.14,YE,1715194865
254,vadso,70.0744,29.7487,0.09,74,40,2.57,NO,1715194865
255,namtsy,62.7161,129.6658,-1.26,93,16,2.58,RU,1715194865
256,pariaman,-0.619,100.12,27.03,86,100,2.29,ID,1715194642
257,cidreira,-30.1811,-50.2056,23.65,83,100,5.57,BR,1715194865
258,goure,13.9835,10.2704,35.1,10,7,3.65,NE,1715194865
259,okahandja,-21.9833,16.9167,25.2,35,100,3.95,NA,1715194866
260,codrington,-38.2667,141.9667,9.41,86,21,1.75,AU,1715194866
261,kushiro,42.975,144.3747,-0.47,86,11,0.51,JP,1715194866
262,totness,5.8833,-56.3167,29.01,71,100,5.39,SR,1715194866
263,terrace,54.5163,-128.6035,10.95,66,40,10.29,CA,1715194866
264,nouadhibou,20.931,-17.0347,19.99,83,20,9.26,MR,1715194866
265,gallup,35.5281,-108.7426,13.42,17,0,8.66,US,1715194835
266,tiglauigan,10.9539,123.3581,27.38,79,100,2.88,PH,1715194866
267,sitka,57.0531,-135.33,7.94,87,100,6.17,US,1715194866
268,ulan bator,47.9077,106.8832,13.07,16,40,2.0,MN,1715194587
269,klyuchi,52.2667,79.1667,13.22,49,14,2.6,RU,1715194867
270,port lincoln,-34.7333,135.8667,15.21,81,87,5.2,AU,1715194867
271,pontes e lacerda,-15.2261,-59.3353,36.12,31,7,2.99,BR,1715194867
272,mangai,-4.05,19.5333,27.52,54,100,0.81,CD,1715194867
273,guozhen,34.3659,107.359,18.39,68,100,0.89,CN,1715194867
274,kitgum,3.2783,32.8867,22.27,80,99,1.55,UG,1715194867
275,neryungri,56.6709,124.6491,-0.45,93,97,4.28,RU,1715194867
276,harstad,68.799,16.5293,5.09,94,100,7.15,NO,1715194867
277,kakata,6.53,-10.3517,28.49,94,100,1.76,LR,1715194868
278,karratha,-20.7377,116.8463,23.9,66,0,2.51,AU,1715194868
279,al hawatah,13.4167,34.6333,33.6,11,73,4.14,SD,1715194868
280,mwinilunga,-11.7358,24.4293,22.16,58,99,1.24,ZM,1715194868
281,matoury,4.8483,-52.3317,28.98,79,75,3.09,GF,1715194868
282,haiku-pauwela,20.9219,-156.3051,25.68,72,13,1.34,US,1715194868
283,garissa,-0.4536,39.6401,26.73,71,100,8.32,KE,1715194868
284,as sulayyil,20.4607,45.5779,32.14,15,0,5.15,SA,1715194868
285,xilin hot,43.9667,116.0333,10.78,19,100,2.99,CN,1715194868
286,ballina,-28.8667,153.5667,16.55,72,96,2.42,AU,1715194869
287,capao da canoa,-29.7456,-50.0097,27.26,66,100,3.58,BR,1715194790
288,yoichi,43.2039,140.7703,3.93,78,42,1.27,JP,1715194837
289,salalah,17.0151,54.0924,29.2,79,44,4.13,OM,1715194869
290,mahibadhoo,3.7833,72.9667,29.4,74,100,4.55,MV,1715194869
291,tibanbang,6.6315,126.1055,27.0,81,7,3.13,PH,1715194869
292,peterhead,57.5058,-1.7981,17.22,84,100,1.81,GB,1715194869
293,ellington,41.904,-72.4698,26.62,80,40,3.09,US,1715194777
294,porto velho,-8.7619,-63.9039,34.03,52,40,2.57,BR,1715194735
295,igarka,67.4667,86.5833,-0.55,99,100,5.81,RU,1715194870
296,san justo,-30.7891,-60.5919,18.3,63,0,7.05,AR,1715194870
297,christchurch,-43.5333,172.6333,4.74,88,100,4.12,NZ,1715194802
298,miyako,39.6367,141.9525,7.14,92,100,1.41,JP,1715194870
299,vila velha,-20.3297,-40.2925,28.97,83,20,5.14,BR,1715194645
300,crawfordsville,40.0411,-86.8745,26.84,39,100,3.82,US,1715194870
301,kyzyl,51.7,94.45,13.34,54,6,4.47,RU,1715194870
302,dzuunmod,48.2199,97.3744,5.49,86,99,0.96,MN,1715194870
303,lospalos,-8.5186,127.0025,21.97,90,55,2.5,TL,1715194871
304,siracusa,37.0881,15.2792,16.65,89,100,1.13,IT,1715194828
305,humaita,-7.5061,-63.0208,33.01,55,98,1.62,BR,1715194871
306,porto tolle,44.9497,12.3245,16.98,77,100,3.92,IT,1715194871
307,bure,10.7,37.0667,23.4,39,100,3.45,ET,1715194871
308,pakxan,18.3778,103.6601,24.18,88,8,2.82,LA,1715194871
309,touros,-5.1989,-35.4608,28.69,75,48,5.23,BR,1715194830
310,keflavik,64.0049,-22.5624,7.24,61,75,5.14,IS,1715194871
311,jinka,5.65,36.65,18.96,92,100,1.43,ET,1715194871
312,dalnegorsk,44.5604,135.5701,6.45,90,7,0.89,RU,1715194871
313,lompoc,34.6391,-120.4579,26.12,58,0,5.66,US,1715194808
314,wailua homesteads,22.0669,-159.378,26.24,84,17,2.24,US,1715194872
315,newman,37.3138,-121.0208,22.86,35,0,8.05,US,1715194872
316,sumbawa besar,-8.5,117.4333,21.94,96,1,1.99,ID,1715194809
317,alice springs,-23.7,133.8833,10.75,71,0,3.09,AU,1715194721
318,uglegorsk,49.0833,142.0333,1.44,83,5,5.06,RU,1715194872
319,flin flon,54.7682,-101.865,14.91,44,20,1.03,CA,1715194872
320,khash,28.2211,61.2158,25.94,21,0,2.98,IR,1715194872
321,santyoku,37.4406,129.1708,10.21,38,0,3.35,KR,1715194872
322,policoro,40.2115,16.6726,21.79,95,75,1.48,IT,1715194873
323,santa cruz,-17.8,-63.1667,31.7,58,20,11.83,BO,1715194566
324,tuy hoa,13.0833,109.3,25.87,91,99,1.4,VN,1715194873
325,susuman,62.7833,148.1667,-1.12,83,99,1.34,RU,1715194873
326,prince george,53.9166,-122.753,12.36,41,75,4.63,CA,1715194674
327,rasht,37.2808,49.5832,15.9,100,100,2.06,IR,1715194873
328,carnarvon,-24.8667,113.6333,21.66,54,26,1.06,AU,1715194873
329,jayapura,-2.5333,140.7,23.66,92,100,1.22,ID,1715194873
330,kyaka,-1.2522,31.4203,22.9,94,68,1.62,TZ,1715194873
331,broken hill,-31.95,141.4333,13.14,74,12,4.39,AU,1715194874
332,sanctuary point,-35.1114,150.629,15.97,89,95,0.84,AU,1715194874
333,puruaran,19.1,-101.5333,34.61,13,100,3.0,MX,1715194874
334,tindouf,27.6711,-8.1474,39.25,6,0,6.17,DZ,1715194874
335,istgah-e rah ahan-e garmsar,35.2346,52.3094,22.25,25,0,1.93,IR,1715194874
336,mingshui,36.7167,117.5,16.42,38,91,4.29,CN,1715194874
337,danielskuil,-28.1887,23.5395,19.31,30,4,3.68,ZA,1715194874
338,san antonio de pale,-1.4014,5.6325,27.05,89,24,4.12,GQ,1715194874
339,rach gia,10.0167,105.0833,29.02,75,100,4.98,VN,1715194874
340,mahina,-17.5065,-149.489,28.87,65,20,1.03,PF,1715194875
341,dunedin,-45.8742,170.5036,3.22,90,6,0.45,NZ,1715194587
342,whakatane,-37.9585,176.9854,8.86,78,6,4.08,NZ,1715194875
343,balqash,46.8481,74.995,18.69,44,95,7.12,KZ,1715194875
344,arraial do cabo,-22.9661,-42.0278,29.98,69,0,10.29,BR,1715194799
345,kralendijk,12.15,-68.2667,31.99,66,40,7.2,BQ,1715194678
346,labrador city,52.9463,-66.9114,6.77,41,20,6.26,CA,1715194815
347,lai chau,22.3997,103.4517,17.15,94,100,1.57,VN,1715194875
348,hotan,37.0997,79.9269,22.9,16,0,1.99,CN,1715194876
349,lebu,-37.6167,-73.65,11.93,65,47,3.72,CL,1715194876
350,andergrove,-21.0833,149.1833,21.47,84,40,8.06,AU,1715194876
351,garrucha,37.1874,-1.8349,17.48,72,99,2.42,ES,1715194876
352,opuwo,-18.0607,13.84,25.01,41,40,2.29,NA,1715194839
353,ushtobe,45.2514,77.9838,19.68,33,100,10.28,KZ,1715194876
354,port alfred,-33.5906,26.891,18.43,93,100,0.45,ZA,1715194876
355,ludington,43.9553,-86.4526,20.45,76,0,3.6,US,1715194876
356,par naogaon,24.8029,88.9508,24.61,65,100,2.92,BD,1715194877
357,siraha,26.6541,86.2087,27.25,47,89,4.29,NP,1715194877
358,whangarei,-35.7317,174.3239,7.6,95,4,1.34,NZ,1715194877
359,omdurman,15.6445,32.4777,32.25,7,0,6.9,SD,1715194877
360,vredendal,-31.6683,18.5012,15.55,67,0,2.88,ZA,1715194877
361,keyser,39.4409,-78.9739,30.22,36,6,1.34,US,1715194607
362,tangalle,6.024,80.7911,25.09,92,100,3.07,LK,1715194877
363,santiago de cuba,20.0247,-75.8219,30.66,63,43,1.89,CU,1715194878
364,fort irwin,35.2627,-116.6848,20.9,15,0,9.77,US,1715194878
365,merizo village,13.2658,144.6691,28.31,90,100,5.85,GU,1715194878
366,nemuro,43.3236,145.575,2.75,84,8,2.86,JP,1715194878
367,mumford,5.2618,-0.759,28.78,80,95,4.87,GH,1715194878
368,talcahuano,-36.7167,-73.1167,10.82,76,20,3.6,CL,1715194623
369,brookings,44.3114,-96.7984,19.19,55,0,8.23,US,1715194708
370,ponferrada,42.5466,-6.5962,17.23,38,100,1.79,ES,1715194878
371,ginir,7.1333,40.7,15.75,87,12,1.76,ET,1715194878
372,noumea,-22.2763,166.4572,22.78,99,100,5.6,NC,1715194721
373,saint-pierre,-21.3393,55.4781,23.82,64,0,8.75,RE,1715194879
374,menaka,15.9182,2.4022,38.19,12,5,2.19,ML,1715194879
375,ghadamis,30.1337,9.5007,23.1,46,2,10.69,LY,1715194879
376,selkirk,50.1436,-96.8845,22.82,42,10,3.58,CA,1715194879
377,holualoa,19.6228,-155.9522,24.75,76,16,2.23,US,1715194789
378,nar'yan-mar,67.6713,53.087,-4.94,88,100,7.15,RU,1715194879
379,berdigestyakh,62.0989,126.6992,-1.86,97,44,2.39,RU,1715194879
380,popondetta,-8.7537,148.2534,23.15,99,100,1.14,PG,1715194879
381,impfondo,1.6381,18.0667,24.8,86,100,1.75,CG,1715194880
382,watsa,3.0372,29.5355,20.01,87,87,1.58,CD,1715194880
383,chui,-33.6971,-53.4616,16.94,89,99,6.85,UY,1715194880
384,chibougamau,49.9168,-74.3659,9.79,50,100,5.14,CA,1715194880
385,tabarka,36.9544,8.758,14.36,88,40,5.14,TN,1715194880
386,sao gabriel da cachoeira,-0.1303,-67.0892,29.89,74,40,2.57,BR,1715194810
387,necochea,-38.5473,-58.7368,12.74,57,100,12.36,AR,1715194724
388,yashkul',46.1711,45.3435,13.19,44,0,5.35,RU,1715194881
389,naryn,41.4287,75.9911,13.88,27,70,2.57,KG,1715194881
390,akrehamn,59.2667,5.1833,9.44,71,0,1.54,NO,1715194881
391,puerto lempira,15.2667,-83.7667,35.08,55,40,4.12,HN,1715194881
392,varzea grande,-15.6467,-56.1325,34.93,43,40,4.63,BR,1715194881
393,agacoren,38.8748,33.9167,13.49,39,97,1.5,TR,1715194881
394,khandyga,62.6667,135.6,0.73,95,100,1.68,RU,1715194881
395,inirida,3.8653,-67.9239,33.05,57,88,1.57,CO,1715194881
396,la passe,45.5549,-0.8967,20.13,82,43,4.21,FR,1715194881
397,bitkine,11.9801,18.2138,34.81,10,20,2.32,TD,1715194881
398,umluj,25.0213,37.2685,26.12,59,68,3.33,SA,1715194846
399,laojunmiao,39.8333,97.7333,13.87,29,88,3.63,CN,1715194882
400,xichang,27.8964,102.2634,15.63,87,100,1.05,CN,1715194756
401,kimbe,-5.5502,150.1429,24.75,97,100,0.33,PG,1715194882
402,cruzeiro do sul,-29.5128,-51.9853,25.04,89,100,4.05,BR,1715194861
403,thunder bay,48.4001,-89.3168,14.99,44,40,5.14,CA,1715194865
404,port macquarie,-31.4333,152.9167,14.38,79,20,1.2,AU,1715194882
405,karatau,43.1667,70.4667,22.85,48,100,1.51,KZ,1715194882
406,luleburgaz,41.4039,27.3592,14.63,91,100,5.16,TR,1715194882
407,gorom-gorom,14.4439,-0.2361,37.58,16,12,0.87,BF,1715194882
408,belmonte,-15.8631,-38.8828,27.64,67,0,3.23,BR,1715194883
409,williston,48.147,-103.618,12.41,90,100,1.34,US,1715194863
410,ulsan,35.5372,129.3167,6.61,85,0,1.37,KR,1715194883
411,klamath falls,42.2249,-121.7817,14.37,43,0,2.24,US,1715194863
412,epe,6.5841,3.9834,27.59,84,100,3.27,NG,1715194883
413,tvoroyri,61.5556,-6.8111,9.04,99,100,7.88,FO,1715194883
414,fort bragg,35.139,-79.006,33.23,57,40,4.12,US,1715194697
415,kuqa,41.7278,82.9364,24.49,17,100,2.58,CN,1715194816
416,santa terezinha,-29.9002,-50.0904,25.47,74,100,5.82,BR,1715194883
417,jerome,42.7241,-114.5186,10.8,51,0,8.23,US,1715194748
418,quiberon,47.4841,-3.1196,18.78,62,99,1.73,FR,1715194884
419,xianyang,34.3378,108.7026,19.58,82,0,2.0,CN,1715194884
420,tamanrasset,22.785,5.5228,32.95,9,0,6.17,DZ,1715194884
421,vrangel',42.7297,133.0839,6.41,89,15,2.25,RU,1715194884
422,touba,8.2833,-7.6833,27.36,71,86,2.23,CI,1715194884
423,kavaratti,10.5669,72.642,30.5,68,100,4.25,IN,1715194884
424,masumbwe,-3.6333,32.1833,20.17,88,100,1.7,TZ,1715194884
425,antofagasta,-23.65,-70.4,17.6,77,84,4.53,CL,1715194291
426,mugia,43.1041,-9.2179,15.67,83,51,4.17,ES,1715194885
427,xinyuan,37.3,99.0,5.81,55,100,1.09,CN,1715194885
428,mata-utu,-13.2816,-176.1745,29.4,79,100,4.96,WF,1715194885
429,suva,-18.1416,178.4415,19.71,94,75,2.06,FJ,1715194885
430,sangolqui,-0.3341,-78.4522,14.27,94,100,1.73,EC,1715194811
431,lata,40.1629,-8.3327,20.16,55,28,0.77,PT,1715194885
432,taoudenni,22.6783,-3.9836,35.45,5,0,1.79,ML,1715194885
433,catia la mar,10.6038,-67.0303,30.11,84,75,2.57,VE,1715194885
434,velikiye luki,56.34,30.5452,-1.13,56,2,4.01,RU,1715194885
435,las tablas,7.7667,-80.2833,30.65,99,100,2.47,PA,1715194886
436,le port,-20.9373,55.2919,24.0,71,14,4.37,RE,1715194886
437,kuressaare,58.2481,22.5039,6.12,68,91,1.54,EE,1715194757
438,port alberni,49.2413,-124.8028,18.29,57,13,0.89,CA,1715194886
439,salanso,12.1833,-4.0833,32.3,43,89,5.33,BF,1715194886
440,jianshui,23.6363,102.8264,17.24,96,100,1.75,CN,1715194886
441,concepcion,-36.827,-73.0498,10.89,76,20,3.6,CL,1715194886
442,saudarkrokur,65.7461,-19.6394,4.22,63,65,0.87,IS,1715194640
443,marsh harbour,26.5412,-77.0636,25.15,68,1,5.15,BS,1715194804
444,pundong,-7.9522,110.3486,24.04,91,2,1.09,ID,1715194886
445,brandon,27.9378,-82.2859,36.18,60,40,4.63,US,1715194864
446,vila do maio,15.1333,-23.2167,23.89,80,1,7.6,CV,1715194887
447,ostersund,63.1792,14.6357,4.25,81,100,3.6,SE,1715194819
448,claveria,18.6074,121.0832,25.66,89,86,5.63,PH,1715194887
449,volchikha,52.0333,80.3833,12.77,58,74,2.24,RU,1715194887
450,alpatovo,43.7028,45.2415,16.75,74,100,3.67,RU,1715194887
451,coronel dorrego,-38.7187,-61.2873,11.82,41,6,10.18,AR,1715194887
452,puttalam,8.0362,79.8283,27.32,82,100,5.08,LK,1715194887
453,santa maria da vitoria,-13.3947,-44.1886,34.04,24,0,2.2,BR,1715194887
454,angaur state,6.906,134.13,28.32,76,82,2.55,PW,1715194888
455,changli,39.7042,119.1506,17.97,37,31,2.02,CN,1715194888
456,taltal,-25.4,-70.4833,20.22,60,99,2.68,CL,1715194888
457,pokachi,61.7198,75.3683,-2.05,95,100,1.8,RU,1715194888
458,manadhoo,5.7667,73.3833,29.72,74,100,4.15,MV,1715194888
459,inhambane,-23.865,35.3833,21.99,83,20,1.54,MZ,1715194888
460,noyabrsk,63.1994,75.4507,1.8,100,100,3.13,RU,1715194888
461,ebebiyin,2.1511,11.3353,22.41,98,95,1.32,GQ,1715194661
462,freeport,40.6576,-73.5832,31.39,76,0,4.63,US,1715194889
463,oranjemund,-28.55,16.4333,15.02,84,2,5.26,NA,1715194889
464,khovd,48.0056,91.6419,11.82,54,100,3.97,MN,1715194889
465,ibiza,38.9088,1.433,19.56,70,0,2.57,ES,1715194801
466,selfoss,63.9331,-20.9971,7.25,54,7,5.93,IS,1715194640
467,uglekamensk,43.2172,133.2303,2.72,89,14,0.42,RU,1715194889
468,northam,51.0333,-4.2167,14.78,77,100,1.1,GB,1715194890
469,alenquer,-1.9417,-54.7383,29.21,82,66,1.64,BR,1715194890
470,heroica matamoros,25.8833,-97.5,34.45,65,100,6.56,MX,1715194865
471,cannonvale,-20.2833,148.7,23.66,80,97,7.43,AU,1715194890
472,nadym,65.5333,72.5167,-9.46,96,100,3.84,RU,1715194890
473,calama,-22.4667,-68.9333,25.27,10,0,9.26,CL,1715194448
474,maua,-23.6678,-46.4614,30.89,47,3,4.04,BR,1715194836
475,sinop,41.7711,34.8709,12.26,67,8,2.34,TR,1715194890
476,bel ombre,-4.6167,55.4167,26.91,89,20,1.54,SC,1715194890
477,wanning,18.8003,110.3967,25.14,90,76,1.52,CN,1715194891
478,hafar al-batin,28.4328,45.9708,27.32,16,0,3.6,SA,1715194891
479,aweil,8.7682,27.4002,33.91,20,6,2.34,SS,1715194891
480,saint-philippe,-21.3585,55.7679,23.77,76,90,6.82,RE,1715194891
481,neustadt-glewe,53.3785,11.5926,16.06,75,53,2.8,DE,1715194891
482,bereket,39.2446,55.5154,20.35,47,0,4.12,TM,1715194891
483,sao paulo de olivenca,-3.3783,-68.8725,32.89,59,80,1.67,BR,1715194891
484,egbe,8.2167,5.5167,30.08,51,100,3.51,NG,1715194891
485,kodinar,20.7903,70.7031,27.32,87,0,6.63,IN,1715194891
486,diu,20.7141,70.9822,27.59,83,0,6.87,IN,1715194892
487,val-des-monts,45.6501,-75.666,10.78,87,100,2.06,CA,1715194710
488,mpika,-11.8343,31.4529,15.94,86,100,2.11,ZM,1715194892
489,sterling,39.0062,-77.4286,30.98,49,100,4.63,US,1715194892
490,prince rupert,54.3161,-130.3201,10.05,90,100,7.72,CA,1715194892
491,vyazemskiy,47.5378,134.7525,12.35,42,100,5.93,RU,1715194892
492,sola,-13.8833,167.55,26.7,69,100,8.5,VU,1715194880
493,ocumare del tuy,10.1165,-66.7761,32.54,50,100,1.66,VE,1715194892
494,kupang,-10.1667,123.5833,26.32,94,3,2.06,ID,1715194892
495,villanueva,15.3167,-88.0,39.46,47,40,1.54,HN,1715194893
496,ulsteinvik,62.3432,5.8487,10.5,79,100,2.68,NO,1715194893
497,pangoa,-12.1167,-73.0,31.69,52,100,1.63,PE,1715194893
498,virginia,37.5481,-77.4467,33.07,53,75,6.17,US,1715194750
499,kilindoni,-7.9139,39.6668,26.78,82,100,8.0,TZ,1715194893
500,new norfolk,-42.7826,147.0587,11.07,99,95,0.67,AU,1715194893
501,kalmunai,7.4167,81.8167,27.44,81,100,2.59,LK,1715194893
502,barclayville,4.6797,-8.2339,26.21,91,100,2.36,LR,1715194893
503,mo i rana,66.3128,14.1428,5.18,84,75,2.24,NO,1715194893
504,nuuk,64.1835,-51.7216,5.34,45,20,4.63,GL,1715194877
505,tanumah,27.1,44.1333,26.48,17,1,5.03,SA,1715194894
506,markaz-e hukumat-e darweshan,31.1323,64.1934,32.38,13,10,2.32,AF,1715194894
507,vytegra,61.0064,36.4481,-0.91,64,100,6.26,RU,1715194894
508,kenai,60.5544,-151.2583,7.05,65,0,0.0,US,1715194894
509,chestertown,39.209,-76.0666,31.75,52,10,6.25,US,1715194894
510,pionerskiy,54.9508,20.2275,7.91,72,100,3.19,RU,1715194894
511,kapa'a,22.0752,-159.319,26.99,84,15,2.24,US,1715194895
512,abepura,-2.6333,140.5833,23.45,100,20,0.51,ID,1715194895
513,axim,4.8699,-2.2405,27.99,81,40,3.05,GH,1715194895
514,quellon,-43.1167,-73.6167,9.05,88,100,6.21,CL,1715194884
515,gaigeturi,33.4644,126.3183,12.03,82,20,3.6,KR,1715194895
516,vanimo,-2.6741,141.3028,25.32,90,100,1.15,PG,1715194895
517,mananjary,-21.2167,48.3333,22.79,86,26,2.27,MG,1715194895
518,alo,7.4178,6.7371,30.78,65,99,3.71,NG,1715194895
519,shchyolkino,45.4291,35.8223,15.87,89,100,1.98,UA,1715194895
520,port shepstone,-30.7414,30.455,20.73,81,18,2.94,ZA,1715194896
521,ulety,51.3572,112.4849,5.22,36,100,1.28,RU,1715194896
522,siwa oasis,29.2041,25.5195,27.07,16,2,4.85,EG,1715194896
523,grand-lahou,5.1367,-5.0242,28.01,82,100,3.75,CI,1715194879
524,huntingdon,52.3305,-0.1865,18.39,84,83,2.82,GB,1715194896
525,tobol,52.6844,62.5794,14.99,79,100,3.0,KZ,1715194896
526,jalai nur,49.45,117.7,8.24,26,8,3.58,CN,1715194896
527,fengcheng,40.4536,124.0717,9.57,92,24,1.74,CN,1715194896
528,tromso,69.6496,18.957,6.01,42,0,5.14,NO,1715194645
529,yauya,-8.9833,-77.3,19.14,39,90,2.13,PE,1715194897
530,usinsk,65.9939,57.5281,-0.52,89,100,2.68,RU,1715194897
531,midvagur,62.0511,-7.1939,10.46,93,100,5.66,FO,1715194879
532,mbekenyera,-10.0,38.9833,20.86,90,34,1.62,TZ,1715194897
533,yanchep,-31.55,115.6833,21.07,33,100,6.48,AU,1715194897
534,itoman,26.1247,127.6694,21.01,64,40,9.77,JP,1715194897
535,acajutla,13.5928,-89.8275,31.61,65,100,4.13,SV,1715194897
536,altay,47.8667,88.1167,12.0,52,0,3.57,CN,1715194897
537,fuman,37.2273,49.3142,15.72,95,99,2.12,IR,1715194897
538,maceio,-9.6658,-35.7353,26.69,83,75,3.6,BR,1715194803
539,carbonear,47.7332,-53.2148,6.53,87,100,4.52,CA,1715194898
540,mil'kovo,55.6078,37.7956,1.35,94,100,7.31,RU,1715194898
541,yamada,39.4667,141.95,6.82,89,100,1.33,JP,1715194898
542,khilok,51.3674,110.4676,3.87,45,100,2.21,RU,1715194898
543,peterborough,52.5736,-0.2478,18.42,59,83,3.6,GB,1715194616
544,asosa,10.0667,34.5333,23.1,19,71,1.49,ET,1715194898
545,labytnangi,66.6572,66.4183,-2.57,83,100,5.33,RU,1715194898
546,sechura,-5.5569,-80.8222,25.91,58,16,6.25,PE,1715194899
547,mount isa,-20.7333,139.5,21.87,73,75,2.06,AU,1715194899
548,simplicio mendes,-7.8539,-41.9103,33.51,34,100,4.72,BR,1715194899
549,aioun,16.6614,-9.6149,39.4,12,23,3.81,MR,1715194899
550,pangody,65.85,74.4859,-14.12,100,87,2.66,RU,1715194899
